{
    "characters":[
       {
          "rawName":"PIRANHA PLANT",
          "name":"packun_flower",
          "coordinates":[
             0.27510460251046026,
             0.896421845574388
          ]
       },
       {
          "rawName":"JOKER",
          "name":"joker",
          "coordinates":[
             0.6649232914923291,
             0.7024482109227872
          ]
       },
       {
          "rawName":"HERO",
          "name":"dq_hero",
          "coordinates":[
             0.6377266387726639,
             0.943502824858757
          ]
       },
       {
          "rawName":"BANJO &amp; KAZOOIE",
          "name":"banjo_and_kazooie",
          "coordinates":[
             0.07147838214783822,
             0.391713747645951
          ]
       },
       {
          "rawName":"TERRY",
          "name":"terry",
          "coordinates":[
             0.698744769874477,
             0.7344632768361582
          ]
       },
       {
          "rawName":"BYLETH",
          "name":"byleth",
          "coordinates":[
             0.19735006973500696,
             0.7645951035781544
          ]
       },
       {
          "rawName":"MIN MIN",
          "name":"minmin",
          "coordinates":[
             0.6952580195258019,
             0.935969868173258
          ]
       },
       {
          "rawName":"STEVE / ALEX",
          "name":"steve",
          "coordinates":[
             0.14435146443514643,
             1.0753295668549905
          ]
       },
       {
          "rawName":"SEPHIROTH",
          "name":"sephiroth",
          "coordinates":[
             0.4525801952580195,
             0.7325800376647834
          ]
       },
       {
          "rawName":"PYRA / MYTHRA",
          "name":"homura",
          "coordinates":[
             0.7566248256624826,
             0.4425612052730697
          ]
       },
       {
          "rawName":"KAZUYA",
          "name":"kazuya",
          "coordinates":[
             0.16701534170153418,
             0.711864406779661
          ]
       },
       {
          "rawName":"SORA",
          "name":"sora",
          "coordinates":[
             0.6345885634588564,
             0.3954802259887006
          ]
       },
       {
          "rawName":"MARIO",
          "name":"mario",
          "coordinates":[
             0.8253138075313807,
             0.4218455743879473
          ]
       },
       {
          "rawName":"DONKEY KONG",
          "name":"donkey_kong",
          "coordinates":[
             0.5376569037656904,
             0.4764595103578154
          ]
       },
       {
          "rawName":"LINK",
          "name":"link",
          "coordinates":[
             0.11541143654114365,
             0.4387947269303202
          ]
       },
       {
          "rawName":"SAMUS",
          "name":"samus",
          "coordinates":[
             0.45571827057182707,
             0.4915254237288136
          ]
       },
       {
          "rawName":"DARK SAMUS",
          "name":"dark_samus",
          "coordinates":[
             0.5993723849372385,
             0.4293785310734463
          ]
       },
       {
          "rawName":"YOSHI",
          "name":"yoshi",
          "coordinates":[
             0.3880753138075314,
             0.6252354048964218
          ]
       },
       {
          "rawName":"KIRBY",
          "name":"kirby",
          "coordinates":[
             0.5003486750348675,
             0.5612052730696798
          ]
       },
       {
          "rawName":"FOX",
          "name":"fox",
          "coordinates":[
             0.48640167364016734,
             0.7175141242937854
          ]
       },
       {
          "rawName":"PIKACHU",
          "name":"pikachu",
          "coordinates":[
             0.48570432357043236,
             1.0263653483992468
          ]
       },
       {
          "rawName":"LUIGI",
          "name":"luigi",
          "coordinates":[
             0.23221757322175732,
             0.3954802259887006
          ]
       },
       {
          "rawName":"NESS",
          "name":"ness",
          "coordinates":[
             0.7799860529986054,
             0.6384180790960452
          ]
       },
       {
          "rawName":"CAPTAIN FALCON",
          "name":"captain_falcon",
          "coordinates":[
             0.9553695955369595,
             0.6440677966101694
          ]
       },
       {
          "rawName":"JIGGLYPUFF",
          "name":"jigglypuff",
          "coordinates":[
             0.8155509065550907,
             1.0451977401129944
          ]
       },
       {
          "rawName":"PEACH",
          "name":"peach",
          "coordinates":[
             0.7890516039051604,
             0.4256120527306968
          ]
       },
       {
          "rawName":"DAISY",
          "name":"daisy",
          "coordinates":[
             0.14435146443514643,
             0.8907721280602636
          ]
       },
       {
          "rawName":"BOWSER",
          "name":"bowser",
          "coordinates":[
             0.35564853556485354,
             0.6534839924670434
          ]
       },
       {
          "rawName":"ICE CLIMBERS",
          "name":"ice_climbers",
          "coordinates":[
             0.03730822873082287,
             0.4613935969868173
          ]
       },
       {
          "rawName":"SHEIK",
          "name":"sheik",
          "coordinates":[
             0.39504881450488144,
             0.4312617702448211
          ]
       },
       {
          "rawName":"ZELDA",
          "name":"zelda",
          "coordinates":[
             0.40446304044630405,
             0.8116760828625236
          ]
       },
       {
          "rawName":"DR. MARIO",
          "name":"dr_mario",
          "coordinates":[
             0.04218967921896792,
             0.9397363465160076
          ]
       },
       {
          "rawName":"PICHU",
          "name":"pichu",
          "coordinates":[
             0.4630404463040446,
             0.8775894538606404
          ]
       },
       {
          "rawName":"FALCO",
          "name":"falco",
          "coordinates":[
             0.3608786610878661,
             0.4256120527306968
          ]
       },
       {
          "rawName":"MARTH",
          "name":"marth",
          "coordinates":[
             0.6237796373779637,
             0.8116760828625236
          ]
       },
       {
          "rawName":"LUCINA",
          "name":"lucina",
          "coordinates":[
             0.9285216178521618,
             0.5856873822975518
          ]
       },
       {
          "rawName":"YOUNG LINK",
          "name":"young_link",
          "coordinates":[
             0.7357043235704324,
             0.7325800376647834
          ]
       },
       {
          "rawName":"GANONDORF",
          "name":"ganondorf",
          "coordinates":[
             0.6642259414225942,
             0.4180790960451977
          ]
       },
       {
          "rawName":"MEWTWO",
          "name":"mewtwo",
          "coordinates":[
             0.25592747559274753,
             0.5235404896421846
          ]
       },
       {
          "rawName":"ROY",
          "name":"roy",
          "coordinates":[
             0.5847280334728033,
             0.7853107344632768
          ]
       },
       {
          "rawName":"CHROM",
          "name":"chrom",
          "coordinates":[
             0.9755927475592747,
             0.7608286252354048
          ]
       },
       {
          "rawName":"MR. GAME &amp; WATCH",
          "name":"mr_game_and_watch",
          "coordinates":[
             0.014644351464435146,
             0.943502824858757
          ]
       },
       {
          "rawName":"META KNIGHT",
          "name":"meta_knight",
          "coordinates":[
             0.9257322175732218,
             0.4670433145009416
          ]
       },
       {
          "rawName":"PIT",
          "name":"pit",
          "coordinates":[
             0.4891910739191074,
             0.4274952919020716
          ]
       },
       {
          "rawName":"DARK PIT",
          "name":"dark_pit",
          "coordinates":[
             0.32217573221757323,
             0.4143126177024482
          ]
       },
       {
          "rawName":"ZERO SUIT SAMUS",
          "name":"zero_suit_samus",
          "coordinates":[
             0.6206415620641562,
             0.6271186440677966
          ]
       },
       {
          "rawName":"WARIO",
          "name":"wario",
          "coordinates":[
             0.854602510460251,
             0.9585687382297552
          ]
       },
       {
          "rawName":"SNAKE",
          "name":"snake",
          "coordinates":[
             0.2290794979079498,
             0.9171374764595104
          ]
       },
       {
          "rawName":"IKE",
          "name":"ike",
          "coordinates":[
             0.3186889818688982,
             0.800376647834275
          ]
       },
       {
          "rawName":"POKÃ‰MON TRAINER",
          "name":"pokemon_trainer",
          "coordinates":[
             0.7496513249651325,
             0.9152542372881356
          ]
       },
       {
          "rawName":"DIDDY KONG",
          "name":"diddy_kong",
          "coordinates":[
             0.4306136680613668,
             0.4105461393596987
          ]
       },
       {
          "rawName":"LUCAS",
          "name":"lucas",
          "coordinates":[
             0.2615062761506276,
             0.6836158192090396
          ]
       },
       {
          "rawName":"SONIC",
          "name":"sonic",
          "coordinates":[
             0.09693165969316597,
             1.0056497175141244
          ]
       },
       {
          "rawName":"KING DEDEDE",
          "name":"king_dedede",
          "coordinates":[
             0.9142259414225942,
             0.8436911487758946
          ]
       },
       {
          "rawName":"OLIMAR",
          "name":"olimar",
          "coordinates":[
             0.32252440725244075,
             1.0828625235404896
          ]
       },
       {
          "rawName":"LUCARIO",
          "name":"lucario",
          "coordinates":[
             0.301952580195258,
             0.6572504708097928
          ]
       },
       {
          "rawName":"R.O.B.",
          "name":"rob",
          "coordinates":[
             0.25278940027894004,
             0.4199623352165725
          ]
       },
       {
          "rawName":"TOON LINK",
          "name":"toon_link",
          "coordinates":[
             0.14539748953974896,
             0.3992467043314501
          ]
       },
       {
          "rawName":"WOLF",
          "name":"wolf",
          "coordinates":[
             0.5289400278940027,
             0.6930320150659134
          ]
       },
       {
          "rawName":"VILLAGER",
          "name":"villager",
          "coordinates":[
             0.8940027894002789,
             1.0301318267419963
          ]
       },
       {
          "rawName":"MEGA MAN",
          "name":"mega_man",
          "coordinates":[
             0.5920502092050209,
             0.967984934086629
          ]
       },
       {
          "rawName":"Wii Fit TRAINER",
          "name":"wii_fit_trainer",
          "coordinates":[
             0.06380753138075314,
             0.751412429378531
          ]
       },
       {
          "rawName":"ROSALINA &amp; LUMA",
          "name":"rosalina_and_luma",
          "coordinates":[
             0.5652022315202232,
             0.632768361581921
          ]
       },
       {
          "rawName":"LITTLE MAC",
          "name":"little_mac",
          "coordinates":[
             0.3423988842398884,
             0.8926553672316384
          ]
       },
       {
          "rawName":"GRENINJA",
          "name":"greninja",
          "coordinates":[
             0.18305439330543932,
             1.0169491525423728
          ]
       },
       {
          "rawName":"Mii FIGHTER",
          "name":"mii_fighter",
          "coordinates":[
             0.16457461645746166,
             0.5894538606403014
          ]
       },
       {
          "rawName":"PALUTENA",
          "name":"palutena",
          "coordinates":[
             0.8594839609483961,
             0.4180790960451977
          ]
       },
       {
          "rawName":"PAC-MAN",
          "name":"pac_man",
          "coordinates":[
             0.5683403068340307,
             0.4048964218455744
          ]
       },
       {
          "rawName":"ROBIN",
          "name":"robin",
          "coordinates":[
             0.9539748953974896,
             0.9849340866290018
          ]
       },
       {
          "rawName":"SHULK",
          "name":"shulk",
          "coordinates":[
             0.6875871687587168,
             0.4463276836158192
          ]
       },
       {
          "rawName":"BOWSER JR.",
          "name":"bowser_jr",
          "coordinates":[
             0.7168758716875872,
             0.3728813559322034
          ]
       },
       {
          "rawName":"DUCK HUNT",
          "name":"duck_hunt",
          "coordinates":[
             0.9790794979079498,
             0.4670433145009416
          ]
       },
       {
          "rawName":"RYU",
          "name":"ryu",
          "coordinates":[
             0.8800557880055788,
             0.4613935969868173
          ]
       },
       {
          "rawName":"KEN",
          "name":"ken",
          "coordinates":[
             0.22733612273361228,
             0.559322033898305
          ]
       },
       {
          "rawName":"CLOUD",
          "name":"cloud",
          "coordinates":[
             0.4100418410041841,
             0.9227871939736346
          ]
       },
       {
          "rawName":"CORRIN",
          "name":"corrin",
          "coordinates":[
             0.030683403068340307,
             0.768361581920904
          ]
       },
       {
          "rawName":"BAYONETTA",
          "name":"bayonetta",
          "coordinates":[
             0.17294281729428174,
             0.3860640301318267
          ]
       },
       {
          "rawName":"INKLING",
          "name":"inkling",
          "coordinates":[
             0.5341701534170153,
             0.9397363465160076
          ]
       },
       {
          "rawName":"RIDLEY",
          "name":"ridley",
          "coordinates":[
             0.9550209205020921,
             0.391713747645951
          ]
       },
       {
          "rawName":"SIMON",
          "name":"simon",
          "coordinates":[
             0.09518828451882845,
             0.7269303201506592
          ]
       },
       {
          "rawName":"RICHTER",
          "name":"richter",
          "coordinates":[
             0.8873779637377964,
             0.6836158192090396
          ]
       },
       {
          "rawName":"KING K. ROOL",
          "name":"king_k_rool",
          "coordinates":[
             0.2883542538354254,
             0.4086629001883239
          ]
       },
       {
          "rawName":"ISABELLE",
          "name":"shizue",
          "coordinates":[
             0.3577405857740586,
             0.943502824858757
          ]
       },
       {
          "rawName":"INCINEROAR",
          "name":"gaogaen",
          "coordinates":[
             0.8403068340306834,
             0.7740112994350282
          ]
       }
    ]
 }